Title,Address,Latitude,Longitude,Found Address,Match Quality,Source
UC San Francisco (UCSF),"505 Parnassus Ave, San Francisco, CA 94143",37.7630895,-122.4578144,"505 Parnassus Ave, San Francisco, CA 94143, USA",Match,Google
Stanford University - Computer Science Department,"353 Serra Mall, Stanford, CA 94305",37.4300643,-122.1734932,"353 Serra Mall, Stanford, CA 94305, USA",Match,Google
UC Berkeley,"UC Berkeley, Berkeley, CA",37.8718992,-122.2585399,"Berkeley, CA 94720, USA",Match,Google
Stanford Shopping Center,"660 Stanford Shopping Center, Palo Alto, CA 94304",37.4430322,-122.171446,"660 Stanford Shopping Center, Palo Alto, CA 94304, USA",Match,Google
Westfield Valley Fair Mall,"2855 Stevens Creek Blvd, Santa Clara, CA 95050",37.325845,-121.9456152,"2855 Stevens Creek Blvd, Santa Clara, CA 95050, USA",Match,Google
Great Mall,"447 Great Mall Dr, Milpitas, CA 95035",37.4163855,-121.897841,"447 Great Mall Dr, Milpitas, CA 95035, USA",Match,Google